City,Date,Latitude,Longitude,Cloudiness,Wind Speed,Humidity,Pressure,T_Max
Sitka,1553385677,37.17,-99.65,0,1.01,48,1011.0,64.0
Vaini,1553386402,15.34,74.49,0,0.92,88,1010.09,62.44
Necochea,1553386014,-38.55,-58.74,0,8.01,75,1007.0,64.0
Nador,1553383800,35.17,-2.93,36,12.75,82,1020.0,60.8
Barrow,1553386439,-38.31,-60.23,24,12.77,85,1011.29,57.85
Saldanha,1553386131,41.42,-6.55,0,4.94,68,1023.77,44.8
Faanui,1553386307,-16.48,-151.75,8,9.64,100,1010.49,84.4
Punta Arenas,1553385794,-53.16,-70.91,75,9.17,81,1014.0,53.6
Namatanai,1553386421,-3.66,152.44,36,5.17,100,1010.93,82.33
Klaksvik,1553385000,62.23,-6.59,64,12.75,86,1008.0,41.0
Rikitea,1553386223,-23.12,-134.97,80,17.69,97,1015.85,79.72
Belmonte,1553385829,40.36,-7.35,0,1.01,59,1022.0,54.0
Busselton,1553385917,-33.64,115.35,12,13.33,55,1012.0,55.99
Hobart,1553385441,-42.88,147.33,20,9.17,52,1007.0,69.01
Vardo,1553385725,39.62,-77.74,1,10.29,19,1022.0,48.2
Yellowknife,1553385749,62.45,-114.38,20,10.29,43,1036.0,14.0
Lavrentiya,1553386177,65.58,-170.99,92,14.67,100,1002.93,18.07
Nanortalik,1553385694,60.14,-45.24,80,7.74,100,1009.65,21.94
Along,1553386427,28.17,94.8,8,1.92,94,1014.97,49.12
Los Llanos de Aridane,1553385903,28.66,-17.92,75,12.75,59,1015.0,64.4
Zonguldak,1553386545,41.25,31.83,88,3.71,89,1023.17,38.41
Ingham,1553386545,-18.65,146.16,88,11.21,99,1013.61,80.26
Atuona,1553385988,-9.8,-139.03,64,16.69,99,1009.65,82.6
Hermanus,1553385736,-34.42,19.24,68,2.93,95,1006.0,64.99
Digapahandi,1553386545,19.37,84.57,0,3.38,84,1010.49,68.65
Bredasdorp,1553385704,-34.53,20.04,92,3.36,83,1011.0,69.8
Dikson,1553386545,73.51,80.55,76,23.06,93,1004.21,18.25
Ponta do Sol,1553386388,-20.63,-46.0,68,2.82,87,1014.49,69.91
Albany,1553386024,42.65,-73.75,1,17.22,53,1017.0,35.01
Hithadhoo,1553385987,-0.6,73.08,92,7.74,100,1009.29,86.2
Tuktoyaktuk,1553382000,69.44,-133.03,75,21.92,72,1020.0,14.0
Qaanaaq,1553386054,77.48,-69.36,20,10.98,78,1024.93,-26.31
Tasiilaq,1553381400,65.61,-37.64,0,2.24,55,1005.0,10.4
Mount Isa,1553383800,-20.73,139.49,90,18.34,74,1011.0,80.6
Bluff,1553386546,-23.58,149.07,0,5.61,63,1015.17,83.86
Pevek,1553386547,69.7,170.27,0,1.7,78,1014.09,-7.86
Dudinka,1553386442,69.41,86.18,88,11.88,80,1012.93,11.95
Ushuaia,1553382000,-54.81,-68.31,40,8.05,62,1014.0,53.6
Upernavik,1553386547,72.79,-56.15,24,8.75,100,1017.05,-10.56
Kodiak,1553386023,39.95,-94.76,90,9.17,83,1016.0,55.99
Atherton,1553386514,53.52,-2.49,88,2.24,86,1033.0,43.0
Cape Town,1553386390,-33.93,18.42,0,8.05,93,1009.0,73.0
Yeppoon,1553383800,-23.13,150.74,40,5.82,62,1015.0,84.2
Itarema,1553385997,-2.92,-39.92,64,3.6,95,1013.73,75.85
Longyearbyen,1553385000,78.22,15.63,20,12.75,72,984.0,17.6
Nkhotakota,1553386548,-12.93,34.3,80,8.63,99,1010.85,72.25
Moree,1553385678,-29.46,149.84,75,9.17,37,1014.0,87.01
Cabo San Lucas,1553386202,22.89,-109.91,5,9.17,47,1018.0,78.01
Guerrero Negro,1553386325,27.97,-114.04,0,12.55,57,1016.17,67.21
Butterworth,1553383800,5.4,100.37,75,3.36,83,1009.0,80.6
Hambantota,1553386060,6.12,81.12,0,4.38,100,1010.61,78.73
Kapaa,1553386099,22.08,-159.32,90,17.22,78,1021.0,80.6
Kuala Terengganu,1553382000,5.33,103.14,75,3.36,94,1009.0,77.0
Grand Gaube,1553386439,-20.01,57.66,75,11.41,83,1009.0,82.4
Mataura,1553386440,-46.19,168.86,92,5.95,51,1015.97,70.81
Meulaboh,1553386086,4.14,96.13,88,4.05,100,1010.61,76.75
Kifri,1553386549,34.69,44.96,92,8.63,77,1010.97,50.38
Aswan,1553386549,24.09,32.9,0,9.86,34,1003.09,73.06
Ahipara,1553386092,-35.17,173.16,0,4.94,74,1023.41,73.6
Kaitangata,1553386072,-46.28,169.85,76,4.38,72,1016.81,67.48
Khairagarh,1553386550,21.42,80.98,0,5.95,33,1011.93,66.49
Salta,1553385600,-24.79,-65.41,0,4.7,87,1018.0,66.2
Ribeira Grande,1553386550,38.52,-28.7,56,25.86,100,1026.53,57.85
Belaya Gora,1553386550,68.54,146.19,44,4.38,80,1011.05,-4.71
Aklavik,1553382000,68.22,-135.01,20,17.22,67,1016.0,23.0
Sinnamary,1553385967,5.38,-52.96,100,11.99,96,1014.05,79.81
Rapid Valley,1553386535,44.06,-103.15,90,10.29,75,1014.0,48.0
Boa Vista,1553382000,2.82,-60.67,40,8.05,34,1009.0,93.2
Georgetown,1553382000,6.8,-58.16,20,6.93,69,1014.0,82.4
Pontes e Lacerda,1553386354,-15.23,-59.33,0,4.38,82,1010.93,77.02
Alofi,1553382000,-19.06,-169.92,68,11.41,65,1012.0,82.4
Hofn,1553386055,64.25,-15.21,76,22.28,100,994.21,39.4
Sarangani,1553386553,5.4,125.46,0,12.21,96,1011.53,81.61
Atambua,1553386554,-9.11,124.89,68,3.49,100,1010.09,79.81
Sur,1553386554,22.57,59.53,12,5.17,95,1013.65,72.16
Aldan,1553386554,58.61,125.39,80,3.71,85,1000.93,19.78
Ampere,1553386552,38.1,-121.24,75,6.93,48,1021.0,66.0
Maputo,1553385600,-25.97,32.57,40,4.7,88,1018.0,75.2
Morgan City,1553386285,29.7,-91.21,1,9.17,46,1021.0,69.8
Torbay,1553385807,47.66,-52.73,90,8.05,100,989.0,39.0
Lerwick,1553383200,60.15,-1.15,80,28.86,81,1020.0,42.8
Cherskiy,1553386321,68.75,161.3,20,2.15,68,1010.37,4.75
Puerto Ayora,1553385689,-0.74,-90.35,20,11.41,74,1010.0,84.2
Makakilo City,1553386220,21.35,-158.09,90,5.82,57,1019.0,80.6
Richards Bay,1553386555,-28.77,32.06,44,7.85,95,1018.29,70.09
Iqaluit,1553385769,63.75,-68.52,90,31.09,71,983.0,6.8
Kohlu,1553386555,29.9,69.25,92,2.93,96,1016.05,51.73
Yaring,1553386556,6.87,101.37,0,2.59,86,1010.05,74.5
Esperance,1553385907,10.24,-61.45,20,9.17,69,1014.0,80.6
Jamestown,1553386442,-33.21,138.6,80,14.23,70,1010.93,71.98
Vanavara,1553385997,60.35,102.28,0,3.15,78,1020.09,3.76
Teguise,1553383800,29.06,-13.56,20,8.05,77,1014.0,60.8
Chabahar,1553386557,25.29,60.65,56,5.5,96,1013.37,73.33
Khandyga,1553386035,62.65,135.58,0,2.59,55,1006.21,-1.29
Vila Franca do Campo,1553386553,37.72,-25.43,75,20.8,76,1020.0,55.0
Avarua,1553383800,-21.21,-159.78,76,8.05,74,1010.0,84.2
Ensley,1553386538,33.51,-86.89,1,2.59,32,1023.0,69.8
Okhotsk,1553386408,59.36,143.24,64,6.96,75,1002.29,25.36
Beloha,1553386557,-25.17,45.06,12,15.57,79,1013.41,74.86
Pangnirtung,1553386022,66.15,-65.72,76,27.65,67,992.93,1.51
Kaupanger,1553386558,61.18,7.24,88,3.6,87,1018.61,29.23
Port-Gentil,1553382000,-0.72,8.78,40,4.7,88,1011.0,82.4
Saint-Augustin,1553386205,44.83,-0.61,0,1.12,71,1025.0,54.0
Airai,1553386032,-8.93,125.41,24,2.15,69,1009.77,78.73
Hasaki,1553385738,35.73,140.83,20,5.82,100,1014.0,46.0
Ginir,1553386558,7.14,40.71,0,2.59,73,1008.85,53.17
Carnarvon,1553385995,-30.97,22.13,76,4.72,21,1008.93,69.73
Norman Wells,1553382000,65.28,-126.83,75,13.87,64,1020.0,33.8
Namibe,1553386521,-15.19,12.15,8,4.16,100,1010.85,78.01
Rodino,1553386559,52.5,80.2,56,8.63,79,1019.41,25.27
Canico,1553386517,32.63,-16.85,75,8.05,72,1017.0,60.8
Ancud,1553382000,-41.87,-73.83,90,1.12,82,1024.0,55.4
New Norfolk,1553386045,-42.78,147.06,20,9.17,52,1007.0,69.01
Bandarbeyla,1553386016,9.49,50.81,92,9.42,100,1010.61,79.63
Hilo,1553386399,19.71,-155.08,40,13.87,61,1019.0,78.8
Ishigaki,1553382000,24.34,124.16,75,17.22,63,1020.0,66.2
Fort Nelson,1553382000,58.81,-122.69,75,3.36,56,1023.0,42.8
Adrar,1553382000,27.87,-0.29,0,9.17,23,1018.0,62.6
Naze,1553386456,5.43,7.07,44,5.5,88,1010.65,75.76
Matinhos,1553386559,-25.82,-48.53,75,3.36,88,1016.0,73.4
Castro,1553382000,-42.48,-73.76,90,1.12,82,1024.0,55.4
Ternate,1553386190,14.29,120.72,20,9.17,69,1014.0,84.99
Carutapera,1553385964,-1.2,-46.02,92,7.63,90,1013.37,78.82
Magadan,1553386561,59.56,150.8,32,21.16,95,999.49,23.65
Ajdabiya,1553386561,30.75,20.22,68,7.4,90,1015.93,55.69
Cidreira,1553386043,-30.17,-50.22,0,6.85,93,1016.97,64.15
Northam,1553386529,51.04,-4.21,92,8.05,70,1032.0,48.0
Talnakh,1553386023,69.49,88.39,64,6.17,81,1014.05,5.56
Bambous Virieux,1553386139,-20.34,57.76,75,13.87,83,1009.0,80.6
Kavieng,1553386052,-2.57,150.8,64,6.4,99,1010.73,84.22
Butaritari,1553385999,3.07,172.79,76,8.75,100,1010.17,80.08
Loukhi,1553386562,66.08,33.04,20,10.09,80,990.53,34.18
Saint-Philippe,1553386212,45.36,-73.48,1,19.46,54,1012.0,32.0
Port Alfred,1553386510,-33.59,26.89,0,1.99,96,1008.0,71.01
Edmundston,1553386380,47.36,-68.33,90,20.8,64,997.0,35.6
Roros,1553385000,62.57,11.38,48,14.99,73,1007.0,26.6
Lompoc,1553386247,34.64,-120.46,75,18.34,82,1022.0,66.99
Kirakira,1553386563,-10.46,161.92,64,10.76,100,1010.53,83.32
Hecun,1553386563,29.94,119.31,20,3.49,86,1026.17,42.91
Kampene,1553386563,-3.59,26.67,36,2.15,96,1008.65,70.36
Dzaoudzi,1553385600,-12.79,45.27,0,2.24,94,1009.0,78.8
Palmer,1553385975,61.6,-149.11,90,1.7,61,1009.0,48.99
Long Xuyen,1553383800,10.39,105.43,20,6.17,100,1009.0,78.8
Inirida,1553386564,3.87,-67.92,68,2.15,94,1011.61,76.39
Vanimo,1553385744,-2.67,141.3,48,9.64,98,1010.49,83.14
Macia,1553386564,-25.03,33.09,36,3.94,80,1018.29,73.15
Meadow Lake,1553382000,54.13,-108.44,20,13.87,65,1022.0,41.0
Flinders,1553385906,-34.58,150.85,40,6.93,61,1013.0,84.99
Solnechnyy,1553386564,50.72,136.64,0,3.49,51,1005.29,15.73
Cockburn Town,1553386461,21.46,-71.14,0,13.67,97,1018.65,79.63
Whitecourt,1553382000,54.14,-115.68,75,13.87,49,1021.0,46.4
Noumea,1553383800,-22.28,166.46,44,3.36,58,1013.0,87.8
Hobyo,1553386062,5.35,48.53,68,13.22,83,1009.49,80.71
Mkuranga,1553386565,-7.12,39.21,48,2.37,95,1010.05,73.24
Ardakan,1553382000,32.31,54.02,20,2.24,28,1015.0,55.4
Arraial do Cabo,1553382000,-22.97,-42.02,20,2.24,88,1016.0,73.4
San Andres,1553386376,13.32,122.68,0,14.12,100,1014.49,78.91
Chokurdakh,1553385995,70.62,147.9,36,4.38,72,1010.81,-6.15
Moyale,1553386085,3.52,39.05,0,6.96,42,1007.09,68.56
Kununurra,1553383800,-15.77,128.74,0,6.93,79,1006.0,84.2
Waris Aliganj,1553386566,25.02,85.63,0,9.19,45,1009.49,66.13
East London,1553385992,-33.02,27.91,0,24.52,91,1010.93,76.12
Lebu,1553382000,8.96,38.73,75,4.7,44,1024.0,60.8
Lorengau,1553386380,-2.02,147.27,68,10.98,97,1010.65,83.05
La Ronge,1553382000,55.1,-105.3,40,11.41,63,1028.0,28.4
Clyde River,1553384040,70.47,-68.59,90,16.11,75,1013.0,-16.61
Gambela,1553386567,8.25,34.59,64,2.71,64,1004.49,71.08
Praia da Vitoria,1553385726,38.73,-27.07,40,27.98,66,1024.0,55.4
Jalu,1553385773,29.03,21.55,0,10.76,68,1015.29,60.91
Bocas del Toro,1553386199,9.33,-82.25,48,8.99,62,1014.0,59.0
Troitsko-Pechorsk,1553386568,62.71,56.19,88,6.96,87,1015.29,26.08
Cayenne,1553383800,4.94,-52.33,0,3.36,83,1013.0,78.8
Hot Springs,1553386390,34.5,-93.06,40,6.93,43,1018.0,71.6
Zatoka,1553386499,50.04,20.52,40,1.12,86,1024.0,51.01
Chuy,1553385714,-33.69,-53.46,8,11.32,81,1016.05,65.32
Novyy Urengoy,1553386495,66.08,76.63,92,4.16,90,1012.93,22.48
Verkhovazhye,1553386568,60.75,42.05,92,16.8,93,1010.09,28.33
Mahebourg,1553385839,-20.41,57.7,75,13.87,83,1009.0,80.6
Kieta,1553385726,-6.22,155.63,92,4.72,96,1010.49,81.52
Chapais,1553382000,49.78,-74.86,1,11.41,32,1005.0,26.6
San Cristobal,1553386514,-0.39,-78.55,75,4.7,81,1029.0,55.4
Ixtapa,1553386518,20.71,-105.21,5,12.75,65,1013.0,80.6
Jipijapa,1553382000,-1.35,-80.58,75,10.29,88,1011.0,80.6
Alyangula,1553382000,-13.85,136.42,0,10.29,74,1007.0,86.0
Thongwa,1553383800,16.76,96.52,0,2.24,88,1009.0,73.4
Tisul,1553386570,55.76,88.31,80,4.38,90,1017.77,28.96
Muli,1553386570,22.62,71.45,0,7.18,52,1011.41,67.75
Birao,1553386331,10.3,22.78,0,7.63,29,1004.93,73.96
Itapirapua,1553386570,-15.82,-50.61,0,4.5,85,1010.93,75.4
Zhigansk,1553386418,66.77,123.37,68,9.08,74,1009.37,9.88
Saint Anthony,1553386509,43.97,-111.68,20,3.36,70,1018.0,46.99
Nikolskoye,1553385905,59.7,30.79,90,6.71,86,1006.0,39.2
Dakar,1553383800,14.69,-17.45,0,14.99,77,1014.0,66.2
Tiksi,1553386055,71.64,128.87,64,4.05,77,1012.61,4.39
Geraldton,1553382000,49.72,-86.95,20,12.75,17,1009.0,51.8
Duluth,1553386560,46.77,-92.13,1,11.88,43,1018.0,50.0
Mar del Plata,1553386552,-46.43,-67.52,0,4.16,81,1018.29,54.16
Coquimbo,1553382000,-29.95,-71.34,20,9.17,87,1016.0,57.2
Wukari,1553386572,7.87,9.78,92,13.22,66,1008.37,84.85
Comodoro Rivadavia,1553382000,-45.87,-67.48,40,9.42,76,1020.0,57.2
Thompson,1553382000,55.74,-97.86,20,13.87,43,1030.0,15.8
Bubaque,1553386103,11.28,-15.83,8,13.67,100,1012.65,77.47
Baykit,1553386085,61.68,96.39,88,3.83,75,1018.49,15.64
Karratha,1553386093,-20.74,116.85,64,36.93,57,995.73,83.86
Itumba,1553386573,-9.4,33.18,36,7.4,92,1009.53,66.04
Saint George,1553381400,39.45,22.34,0,4.16,81,1020.0,44.6
Jumla,1553386573,29.28,82.18,0,2.71,90,1015.29,22.93
Lamu,1553386573,0.57,122.3,12,3.15,94,1011.21,75.67
Bukama,1553386573,-9.2,25.85,88,5.5,100,1009.49,69.01
Krasnopavlivka,1553386574,49.15,36.33,0,10.2,80,1018.53,30.76
Cochrane,1553386574,-47.25,-72.57,12,2.71,83,1018.93,46.24
Kruisfontein,1553385797,-34.0,24.73,76,3.94,83,1008.21,65.95
Tchollire,1553386574,8.4,14.17,92,5.95,32,1004.17,87.01
Moissala,1553386574,8.34,17.77,92,2.48,52,1003.77,85.84
Mullingar,1553386417,53.53,-7.34,40,4.7,80,1033.0,41.0
Provideniya,1553386011,64.42,-173.23,88,20.83,100,999.85,19.6
San Patricio,1553386365,-26.98,-56.83,0,3.83,74,1014.21,67.21
Boguchany,1553386445,58.38,97.46,80,2.48,78,1018.53,22.03
Baculin,1553386575,7.45,126.58,64,10.98,98,1012.29,76.66
Chilchotla,1553386575,19.25,-97.18,64,0.92,83,1013.53,56.23
Ayan,1553386575,40.67,33.6,0,5.17,66,1021.05,21.76
Santa Vitoria do Palmar,1553386575,-33.52,-53.37,8,11.32,81,1016.05,65.32
Bilibino,1553386089,68.06,166.44,0,3.15,77,1011.21,8.08
Marquette,1553386544,46.54,-87.4,5,10.29,29,1017.0,48.2
Oparino,1553386021,59.85,48.28,0,6.62,91,1016.49,27.43
Fort Frances,1553381700,48.61,-93.4,1,13.87,43,1015.0,51.8
Venado Tuerto,1553386508,-33.75,-61.97,0,4.0,51,1014.0,66.99
Salinopolis,1553386042,-0.61,-47.36,68,11.54,100,1013.29,79.63
Los Rastrojos,1553382000,-34.46,-71.02,0,9.17,38,1015.0,77.0
Surin,1553386103,14.88,103.49,80,3.36,78,1011.0,82.99
Vilhena,1553382000,-12.74,-60.15,0,4.7,83,1014.0,78.8
Zilair,1553386577,52.23,57.44,64,0.92,87,1022.73,25.9
Derzhavinsk,1553386577,51.1,66.31,76,3.15,96,1021.97,28.24
Broome,1553386025,52.47,1.45,80,3.83,86,1033.0,44.01
Lukovetskiy,1553383800,64.29,41.92,90,11.18,89,997.0,33.8
Huarmey,1553386578,-10.07,-78.15,36,3.71,68,1011.61,71.35
Saint-Francois,1553385706,46.42,3.91,0,1.12,86,1026.0,39.2
Souillac,1553385970,45.6,-0.6,0,4.7,62,1026.0,54.0
Tyukhtet,1553386578,56.54,89.31,92,3.49,83,1017.29,26.8
Weligama,1553386578,5.97,80.42,36,4.38,100,1010.61,77.74
Dhangadhi,1553386578,28.7,80.57,0,3.27,58,1010.09,55.78
Melnik,1553386344,41.52,23.39,32,1.36,72,1021.0,51.01
The Valley,1553385722,18.22,-63.06,40,11.41,69,1018.0,78.8
Tessalit,1553386094,20.2,1.01,48,8.75,15,1012.53,65.23
Teahupoo,1553385789,-17.83,-149.27,75,9.17,70,1010.0,87.8
Isangel,1553382000,-19.55,169.27,90,3.36,74,1012.0,84.2
Nipawin,1553382000,53.36,-104.02,40,21.92,80,1024.0,35.6
Wheeling,1553386563,40.06,-80.72,1,5.82,38,1025.0,46.4
Hongjiang,1553386580,27.21,109.83,100,4.61,100,1023.09,43.36
Otradnoye,1553386535,59.77,30.8,90,6.71,86,1006.0,39.2
Elmadag,1553386448,39.92,33.23,0,6.93,58,1017.0,32.0
Najran,1553382000,17.54,44.22,0,4.72,25,1014.0,73.4
Luderitz,1553386028,-26.65,15.16,48,9.31,94,1012.93,58.39
Nelson Bay,1553386239,-32.72,152.14,0,10.29,65,1011.0,84.99
Boyolangu,1553386581,-8.09,111.9,32,3.49,95,1009.49,73.33
San Ignacio,1553382000,-36.8,-72.03,0,12.75,38,1017.0,73.4
Gat,1553383800,14.69,-16.54,0,14.99,77,1014.0,66.2
Alta Floresta,1553386424,-9.87,-56.08,24,1.81,90,1011.41,77.2
Lancaster,1553386409,40.04,-76.31,1,17.22,33,1021.0,46.4
Troitskoye,1553386034,52.98,84.68,20,3.49,73,1019.93,16.9
Nyurba,1553386436,63.29,118.35,68,8.41,68,1007.17,13.39
Houma,1553386095,35.63,111.36,20,2.37,56,1023.17,33.82
Victoria,1553383800,5.28,115.24,75,4.38,88,1010.0,80.6
Phuket,1553383800,7.89,98.4,20,3.36,78,1011.0,80.6
Ouallam,1553386582,14.32,2.08,80,8.86,16,1009.93,79.72
Yurty,1553386582,56.05,97.64,88,2.37,79,1019.05,27.52
Saskylakh,1553385968,71.97,114.09,0,2.93,35,1017.29,-24.06
Luwuk,1553386583,-0.95,122.79,68,2.37,89,1010.85,81.52
Vostok,1553386005,46.45,135.83,0,2.93,49,1011.17,15.91
Diego de Almagro,1553386583,-26.39,-70.05,0,2.59,76,1014.29,63.61
Zaraza,1553386583,9.35,-65.33,0,14.67,56,1012.41,81.88
Praia,1553382000,-20.25,-43.81,75,9.17,69,1019.0,73.4
San Agustin,1553386584,10.2,-63.54,0,3.71,48,1013.21,77.83
Vestmanna,1553385000,62.16,-7.17,92,12.75,86,1008.0,41.0
Goundi,1553386584,9.36,17.37,64,4.05,35,1003.73,78.82
Khatanga,1553386055,71.98,102.47,0,3.15,28,1014.81,-19.38
Talcahuano,1553382000,-36.72,-73.12,0,17.22,67,1018.0,62.6
Malindi,1553386584,-3.22,40.12,92,5.61,93,1009.65,77.29
Pundaguitan,1553386585,6.37,126.17,0,8.08,100,1012.09,80.26
Amuntai,1553386413,-2.42,115.25,76,2.93,93,1010.85,75.58
Buala,1553386223,-8.15,159.59,56,6.85,86,1010.73,84.31
Buenavista,1553385600,4.36,-75.74,40,2.24,94,1017.0,77.0
Neepawa,1553382000,50.23,-99.46,75,3.36,70,1017.0,42.8
Muroto,1553382000,33.37,134.14,40,11.41,45,1020.0,48.2
La Rioja,1553386586,-29.41,-66.86,0,5.61,75,1011.17,69.28
Honningsvag,1553386587,70.98,25.97,44,9.86,94,976.21,29.68
Port Elizabeth,1553386014,39.31,-74.98,1,16.11,24,1019.0,50.0
Rome,1553386323,41.89,12.48,0,1.12,50,1021.0,55.99
Ostashkov,1553386587,57.14,33.12,92,18.7,88,1011.85,32.56
Akdepe,1553383800,42.05,59.39,8,4.7,93,1019.0,46.4
Coos Bay,1553386577,43.37,-124.22,20,9.17,76,1024.0,54.0
Cintalapa,1553386432,16.7,-93.73,0,6.85,65,1012.05,74.68
Te Anau,1553386426,-45.41,167.72,68,7.74,62,1016.41,65.05
Sola,1553385903,58.89,5.65,75,9.17,86,1025.0,42.01
Grodig,1553386577,47.73,13.03,0,5.82,70,1026.0,46.0
Marystown,1553385685,47.17,-55.16,80,14.56,100,989.0,36.0
Ergani,1553385000,38.27,39.76,75,5.82,93,1009.0,46.4
Pervomayskoye,1553386588,57.07,86.23,80,2.93,94,1016.93,21.4
Beringovskiy,1553385999,63.05,179.32,88,19.82,94,998.81,12.76
Fortuna,1553385982,38.18,-1.13,0,5.82,76,1024.0,57.2
Port Said,1553386308,25.34,30.55,92,12.44,14,1004.93,80.8
Sirjan,1553386589,29.44,55.67,36,4.94,87,1017.21,34.45
Balakhninskiy,1553386589,58.01,114.28,32,6.4,52,1011.09,5.38
Hualmay,1553386102,-11.1,-77.61,24,4.94,79,1012.05,70.81
The Pas,1553382000,53.82,-101.24,1,11.41,58,1026.0,28.4
Timbuktu,1553386527,16.77,-3.01,92,2.93,30,1009.97,73.33
Alamos,1553386590,-36.9,-62.36,88,13.11,39,1011.29,69.91
Prince Rupert,1553382000,54.32,-130.32,75,10.29,62,1022.0,51.8
Beyneu,1553386414,45.32,55.19,0,3.49,85,1017.77,34.09
Paamiut,1553385742,61.99,-49.67,20,10.76,100,1008.29,19.69
Oranjemund,1553386345,-28.55,16.43,92,3.71,92,1013.53,62.26
Prince George,1553386505,53.92,-122.75,75,3.15,64,1021.0,48.99
Jacksonville,1553386587,30.33,-81.66,1,4.7,36,1024.0,66.99
Ugento,1553386577,39.93,18.16,5,13.87,87,1018.0,55.4
General Roca,1553382000,-39.03,-67.58,0,6.93,22,1014.0,75.2
Vila,1553386024,45.18,8.4,0,8.05,77,1024.0,57.0
Severo-Kurilsk,1553386007,50.68,156.12,88,19.48,99,985.61,30.04
Kadoma,1553386591,-18.34,29.91,0,9.98,78,1014.49,65.86
Potiskum,1553386591,11.71,11.08,36,2.71,65,1005.73,76.03
Valle de Allende,1553386592,26.94,-105.39,0,0.81,12,1008.65,75.49
Reforma,1553386216,24.02,-104.65,5,6.93,7,1020.0,77.0
Lahore,1553383800,31.52,74.33,40,2.93,87,1014.0,59.0
Kholmy,1553386592,51.87,32.6,20,2.93,72,1021.97,23.2
Wajir,1553386593,1.75,40.07,0,12.66,52,1008.05,81.07
Terme,1553385000,41.21,36.97,75,20.8,80,1020.0,41.0
Katsuura,1553384917,33.93,134.5,40,10.29,70,1020.0,46.0
Mount Gambier,1553382000,-37.83,140.78,90,8.05,100,1009.0,60.8
Outjo,1553386593,-20.11,16.16,56,1.81,60,1011.93,72.25
Pisco,1553382000,-13.71,-76.2,75,19.46,30,1011.0,71.6
North Bend,1553386511,43.41,-124.22,20,9.17,76,1024.0,54.0
Natal,1553382000,-5.81,-35.21,40,4.7,83,1013.0,82.4
Luganville,1553386594,-15.51,167.18,92,0.36,100,1011.41,74.59
Constitucion,1553385616,23.99,-104.67,5,6.93,7,1020.0,77.0
Svetlogorsk,1553383800,53.14,59.15,92,2.24,92,1018.0,19.4
Barabai,1553386314,-2.59,115.38,76,2.93,93,1010.85,75.58
Port Lincoln,1553386594,-34.72,135.86,76,10.09,93,1009.41,66.49
Conceicao do Araguaia,1553386531,-8.26,-49.26,64,2.59,94,1012.09,74.41
Petrinja,1553386504,45.44,16.28,0,3.36,80,1025.0,50.0
Lodhikheda,1553383800,21.58,78.83,0,3.94,40,1012.0,71.6
Ahero,1553386595,-0.17,34.92,0,6.17,59,1006.97,62.71
Yulara,1553382000,-25.24,130.99,20,12.75,34,1010.0,82.4
Mattru,1553386595,7.62,-11.83,64,3.71,72,1012.37,80.44
Krk,1553386238,45.03,14.57,0,2.24,74,1023.0,55.4
Zaozerne,1553386100,51.37,23.94,24,10.65,63,1022.17,37.51
Lakatoro,1553386596,-16.11,167.42,92,4.83,100,1011.49,74.86
Bathsheba,1553382000,13.22,-59.52,40,13.87,69,1016.0,78.8
Grindavik,1553385698,63.84,-22.43,75,4.7,100,993.0,33.01
Bukachacha,1553386596,52.99,116.91,0,5.95,48,1006.49,17.35
Sovetskaya Gavan,1553386596,48.97,140.29,0,5.95,87,1005.37,19.6
Quatre Cocos,1553386439,-20.21,57.76,75,11.41,83,1009.0,82.4
Lebyazhye,1553386561,59.96,29.42,90,6.71,86,1006.0,39.2
Rodrigues Alves,1553382000,-7.74,-72.65,40,1.92,88,1010.0,78.8
Dawei,1553386459,14.07,98.19,0,2.37,96,1010.09,72.16
Salur,1553386597,18.52,83.21,0,2.59,89,1010.85,65.95
Bethel,1553385360,60.79,-161.76,40,12.75,65,1004.0,44.6
Bagdarin,1553386597,54.44,113.59,0,8.75,49,1007.97,13.48
Lons-le-Saunier,1553386563,46.67,5.56,0,1.12,80,1024.0,48.2
Raciborz,1553386565,50.09,18.22,0,5.82,81,1025.0,51.01
Aras,1553386598,14.28,44.38,0,0.92,81,1009.37,43.45
Skibbereen,1553383800,51.55,-9.27,75,8.05,75,1034.0,41.0
Viedma,1553386432,-40.81,-62.99,20,19.82,49,1010.93,63.16
Wencheng,1553386599,27.79,120.09,80,2.71,85,1025.77,43.9
Boshnyakovo,1553386599,49.65,142.17,0,4.61,85,1004.17,15.91
Port Macquarie,1553386505,-31.43,152.91,0,1.12,69,1011.0,86.0
Tuatapere,1553386231,-46.13,167.69,68,8.63,72,1014.81,67.03
Geneva,1553386563,46.2,6.15,0,1.12,88,1024.0,48.0
Westport,1553386106,53.8,-9.52,64,5.01,79,1034.0,45.0
Kedrovyy,1553383800,56.17,91.82,40,2.93,86,1015.0,26.6
Antofagasta,1553382000,-23.65,-70.4,0,8.05,72,1014.0,66.2
Pampa,1553385675,35.54,-100.96,1,5.82,24,1014.0,69.8
Vigrestad,1553386591,58.57,5.7,75,9.17,86,1025.0,42.01
Ushtobe,1553386600,45.25,77.98,80,3.04,89,1022.17,33.01
Muros,1553386365,42.77,-9.06,0,1.12,62,1024.0,57.99
Guymon,1553386047,36.68,-101.48,1,3.36,32,1013.0,66.2
Mazyr,1553386601,52.05,29.27,24,7.4,71,1021.73,29.23
Santa Rosa,1553386602,-36.62,-64.29,0,15.23,29,1012.53,71.98
Sao Joao da Barra,1553382000,-21.64,-41.05,0,4.7,78,1016.0,77.0
Mayumba,1553386460,-3.44,10.65,88,4.83,100,1011.37,78.1
Usinsk,1553386166,66.0,57.56,92,17.47,91,1007.77,26.8
Bismarck,1553386537,46.81,-100.78,1,6.93,100,1016.0,48.0
Sol-Iletsk,1553386603,51.16,55.0,56,5.06,90,1021.61,23.2
Blagoveshchenka,1553386603,52.83,79.87,48,7.74,81,1019.49,24.91
Martyush,1553386603,56.4,61.89,24,5.5,71,1023.17,20.86
Vancouver,1553385906,45.63,-122.67,20,4.7,54,1021.0,60.01
Scottsbluff,1553386511,41.87,-103.67,90,3.6,81,1014.0,45.0
Rovaniemi,1553385000,66.5,25.72,0,21.92,74,981.0,32.0
Ludesti,1553386603,44.87,25.23,24,1.03,25,1025.0,46.0
Orlik,1553385750,52.51,99.83,80,4.83,72,1020.41,20.05
Poum,1553386604,41.28,20.71,0,1.7,81,1022.49,31.03
Aykhal,1553386604,65.95,111.51,36,6.62,65,1017.85,-5.43
Quballat,1553382000,36.54,9.66,20,3.36,81,1023.0,51.8
Chicama,1553382000,-7.84,-79.15,75,10.29,88,1011.0,69.8
Hun,1553386599,50.34,4.87,36,5.82,93,1029.0,48.99
Kem,1553386605,2.68,33.77,8,8.41,50,1006.41,67.93
Marsabit,1553386605,2.34,37.99,0,7.63,58,1006.93,74.5
Sorong,1553386018,-0.86,131.25,64,5.28,100,1011.21,80.35
San Quintin,1553386606,17.54,120.52,0,4.38,64,1014.73,73.15
Bridlington,1553386569,54.08,-0.19,92,8.05,65,1033.0,45.0
Niltepec,1553386606,16.57,-94.62,0,11.21,66,1012.09,80.17
Ostrovnoy,1553386606,68.05,39.51,0,21.05,85,987.41,30.58
Bahia Blanca,1553386600,-38.72,-62.27,0,10.65,77,1012.49,62.98
Porto Novo,1553382000,-23.68,-45.44,75,16.11,78,1018.0,71.6
Quartz Hill,1553386605,34.65,-118.22,75,19.46,62,1019.0,66.0
Ust-Maya,1553386607,60.42,134.54,20,4.05,50,1004.73,0.7
Ilulissat,1553381400,69.22,-51.1,56,21.92,54,1013.0,-0.41
Keti Bandar,1553386607,24.14,67.45,12,17.02,95,1012.73,75.49
Inhambane,1553386038,-23.87,35.38,68,11.43,90,1016.61,77.2
Puquio,1553386607,-14.69,-74.12,76,3.71,94,1011.93,44.26
Verkhoyansk,1553386608,67.55,133.39,56,2.71,73,1010.93,-0.39
Fairbanks,1553386562,64.84,-147.72,75,4.16,37,1006.0,53.01
Churachandpur,1553386608,24.33,93.67,0,1.48,85,1011.21,57.31
Birjand,1553382000,32.86,59.22,0,11.41,70,1017.0,44.6
Vila Velha,1553386099,-3.71,-38.6,75,6.93,94,1013.0,79.0
Oskarshamn,1553386504,57.26,16.44,12,17.22,54,1021.0,41.0
Lagoa,1553385729,37.14,-8.45,0,12.75,72,1018.0,60.8
Srednekolymsk,1553386393,67.46,153.71,12,2.59,72,1008.37,12.4
Tsabong,1553386609,-26.02,22.4,20,15.35,33,1010.93,78.28
Auki,1553386609,12.18,6.51,0,6.4,31,1007.37,73.69
Bulaevo,1553386609,54.91,70.44,76,6.96,72,1022.09,20.68
Yenotayevka,1553386610,47.24,47.04,92,4.38,100,1016.37,34.99
Mulchen,1553386610,-37.72,-72.23,0,6.73,58,1019.49,55.15
Mundo Nuevo,1553382000,-32.72,-71.41,0,3.36,87,1017.0,64.4
Mehamn,1553386610,71.03,27.85,0,8.19,73,977.41,24.28
Faya,1553382000,18.39,42.45,0,4.7,50,1022.0,59.0
Barguzin,1553386610,53.62,109.63,76,4.38,70,1013.05,19.6
Rio Grande,1553386611,-32.03,-52.1,0,10.2,94,1017.09,67.66
Neyvo-Rudyanka,1553386611,57.34,60.13,36,3.15,78,1022.65,15.46
Gizo,1553386573,31.8,34.94,92,4.7,93,1005.0,59.0
Hukuntsi,1553386611,-23.98,21.76,0,12.66,37,1012.17,75.31
Dawson,1553386587,39.85,-89.46,1,9.17,43,1023.0,52.0
Padang,1553382000,-0.92,100.36,40,2.24,100,1009.0,75.2
Noyabrsk,1553386612,63.2,75.45,80,4.83,91,1015.09,24.91
Riyadh,1553382000,24.63,46.72,0,4.7,72,1012.0,66.2
Boca do Acre,1553386612,-8.76,-67.39,8,2.04,95,1010.53,74.86
Mo i Rana,1553386213,66.32,14.15,88,3.0,93,992.0,34.0
Upata,1553386612,8.02,-62.41,0,9.75,39,1011.61,83.5
Huadian,1553386613,42.97,126.75,48,10.98,61,1010.81,32.56
Krasnyy Kurgan,1553383800,43.94,42.61,75,11.18,86,1015.0,33.8
Republic,1553381580,48.65,-118.74,75,4.7,42,1018.0,62.6
Siniscola,1553383200,40.57,9.69,0,3.36,75,1023.0,42.8
Baruun-Urt,1553386613,46.68,113.28,24,10.2,51,1014.37,24.46
Gerede,1553386614,40.8,32.2,0,3.49,73,1022.09,21.76
Khuzhir,1553386614,53.19,107.35,44,7.4,70,1015.17,24.1
Santa Marta,1553386193,11.24,-74.21,20,13.87,58,1010.0,87.8
Jadu,1553386614,31.95,12.03,68,3.71,90,1022.37,45.88
Maine-Soroa,1553386614,13.21,12.02,0,12.55,24,1006.17,78.01
Luau,1553386469,-10.7,22.23,92,2.59,99,1010.61,65.95
Sisimiut,1553386063,66.94,-53.67,64,1.81,82,1008.41,-14.16
Kutum,1553386025,14.2,24.66,12,2.71,47,1006.81,64.06
West Bay,1553386591,50.71,-2.76,92,4.7,75,1032.0,48.99
Lampa,1553386548,-33.29,-70.87,0,12.75,31,1015.0,77.0
Victoria,1553383800,5.28,115.24,75,4.38,88,1010.0,80.6
Chynadiyovo,1553386424,48.48,22.82,0,1.7,49,1025.0,39.99
Synya,1553386339,65.37,58.04,88,13.33,86,1010.29,28.06
Camacha,1553383800,33.08,-16.33,20,8.05,72,1017.0,60.8
Nizhniy Tsasuchey,1553386616,50.52,115.13,0,13.44,52,1010.05,25.18
Nantucket,1553386586,41.28,-70.1,1,17.22,51,1010.0,44.6
Saint-Joseph,1553386563,43.56,6.97,0,5.82,61,1022.0,62.01
Myitkyina,1553386616,25.38,97.4,20,1.92,97,1012.93,56.86
Egvekinot,1553386036,66.32,-179.17,76,4.5,80,1007.85,2.77
Ouadda,1553386617,8.07,22.4,24,11.77,25,1005.65,85.21
Cap Malheureux,1553386139,-19.98,57.61,75,13.87,83,1009.0,80.6
Wharton,1553386586,53.2,-2.51,88,2.24,86,1033.0,43.0
Acapulco,1553381280,16.86,-99.88,5,11.41,74,1011.0,84.2
San Pedro,1553386459,-33.68,-59.66,0,1.99,72,1009.0,66.99
Aberystwyth,1553386591,52.41,-4.08,88,2.82,90,1032.0,39.99
Yazd,1553382000,31.89,54.36,20,2.24,28,1015.0,55.4
Hobbs,1553386264,32.7,-103.14,1,8.05,14,1016.0,71.6
Santa Cruz,1553386516,36.97,-122.03,40,12.75,51,1022.0,63.0
Suntar,1553386622,62.16,117.65,64,7.96,69,1006.97,15.01
Zambezi,1553386622,-13.55,23.12,36,3.38,76,1009.77,66.4
Sorland,1553386090,67.67,12.69,92,45.1,99,986.73,39.94
Coihaique,1553382000,-45.58,-72.07,20,3.36,66,1021.0,55.4
Naantali,1553386600,60.45,22.03,0,14.99,60,1006.0,39.2
Sao Jose da Coroa Grande,1553386623,-8.9,-35.15,44,5.61,93,1014.21,78.28
Takoradi,1553386623,4.89,-1.75,8,5.5,100,1010.61,81.25
Yakeshi,1553386332,49.28,120.73,56,9.75,68,1005.17,24.73
Tyrma,1553386624,50.04,132.17,36,3.38,50,1006.53,12.85
Scarborough,1553386569,54.28,-0.41,88,3.36,75,1032.0,45.0
Martapura,1553382000,-3.41,114.85,20,6.93,100,1010.0,75.2
Narsaq,1553381400,60.91,-46.05,24,2.48,51,1010.0,12.2
College,1553386510,64.86,-147.8,75,4.16,37,1006.0,53.01
Lewistown,1553386055,40.39,-90.15,90,11.41,53,1023.0,53.01
Aasiaat,1553386625,68.71,-52.87,68,24.18,100,1012.49,0.43
Wattegama,1553386043,7.35,80.68,56,2.59,87,1011.09,66.58
Robertsport,1553386625,6.75,-11.37,36,8.52,99,1012.53,82.15
Ambuclao,1553386625,16.48,120.75,0,3.04,66,1014.49,72.16
Lovozero,1553386625,68.01,35.02,56,9.19,88,986.49,30.94
Betlitsa,1553386625,54.01,33.96,56,6.73,69,1019.93,22.66
Beira,1553386516,43.2,-8.36,0,3.36,87,1024.0,57.99
Shiyan,1553386626,32.65,110.78,80,2.71,62,1023.41,40.12
Nome,1553386587,30.04,-94.42,75,9.17,52,1021.0,70.0
Alvaraes,1553381100,-3.22,-64.8,0,1.81,88,1009.0,80.6
Kahului,1553386045,20.89,-156.47,40,26.4,54,1018.0,82.4
Eureka,1553386589,40.8,-124.16,20,10.29,100,1023.0,57.99
Kijang,1553382000,35.24,129.21,0,5.82,55,1023.0,37.4
Tocopilla,1553386627,-22.09,-70.2,0,3.71,98,1014.05,63.52
Musafirkhana,1553386627,26.37,81.8,0,9.75,45,1010.17,66.4
Puerto Ayacucho,1553382000,5.66,-67.63,36,4.38,41,1008.0,95.0
Pitimbu,1553382000,-7.47,-34.81,20,6.93,74,1014.0,84.2
Jacareacanga,1553386413,-6.22,-57.76,88,2.15,96,1011.93,74.5
Senanga,1553386628,-16.1,23.3,0,8.52,43,1010.37,76.39
Yumen,1553386417,40.29,97.04,0,3.27,54,1026.09,19.96
Shepsi,1553386628,44.04,39.15,20,8.63,100,1018.17,42.01
Sept-Iles,1553386400,50.2,-66.38,75,17.22,63,994.0,28.99
San Carlos de Bariloche,1553382000,-41.13,-71.31,0,21.92,54,1020.0,55.4
Vestmannaeyjar,1553386629,63.44,-20.27,44,22.73,100,996.53,36.61
Deputatskiy,1553386507,69.3,139.9,0,2.71,48,1010.97,-10.02
Astoria,1553386504,46.19,-123.83,75,3.15,71,1023.0,55.0
Grenaa,1553386583,56.42,10.88,56,9.17,86,1028.0,39.2
Gravdal,1553386628,59.79,5.78,92,14.99,86,1024.0,41.0
Hollister,1553386407,36.85,-121.4,1,16.11,59,1022.0,63.0
Pingliang,1553386630,35.54,106.68,12,2.71,69,1023.17,25.81
Avera,1553386022,33.19,-82.53,1,4.16,39,1023.0,69.8
Ulladulla,1553385729,-35.36,150.48,40,6.93,61,1013.0,77.0
Bud,1553386589,62.91,6.91,75,17.22,75,1014.0,41.0
Antalaha,1553386087,-14.9,50.28,8,9.64,92,1008.85,77.65
Salalah,1553381400,17.01,54.1,40,8.05,78,1012.0,78.8
Lamar,1553381580,38.09,-102.62,20,23.04,50,1013.0,55.4
Sujangarh,1553386631,27.7,74.46,0,6.73,73,1013.09,60.1
Pacific Grove,1553386385,36.62,-121.92,1,16.11,59,1022.0,63.0
Carauari,1553386631,-4.88,-66.9,56,3.94,95,1010.37,77.83
Iranshahr,1553386631,27.21,60.69,56,3.38,97,1015.73,51.82
Aksarka,1553386632,66.56,67.8,20,5.17,56,1014.05,2.77
Santo Antonio do Ica,1553386632,-3.1,-67.94,56,5.73,78,1009.77,82.69
Pampierstad,1553386632,-27.78,24.69,8,11.21,48,1013.61,69.37
Honiara,1553386337,-9.43,159.96,76,2.71,90,1010.65,80.71
Kidal,1553386632,18.44,1.41,88,4.72,15,1011.17,71.89
Chara,1553381400,39.42,22.43,0,4.16,81,1020.0,44.6
Deming,1553386210,32.27,-107.76,1,10.29,11,1019.0,69.8
Kavaratti,1553386631,10.57,72.64,8,10.65,100,1010.17,83.23
Havre-Saint-Pierre,1553382000,50.23,-63.6,90,12.75,74,990.0,28.4
Chapada dos Guimaraes,1553382000,-15.46,-55.75,0,3.36,70,1012.0,86.0
Brownsville,1553386601,25.91,-97.49,90,12.75,73,1016.0,75.2
Beausejour,1553386526,50.06,-96.51,75,4.7,75,1016.0,43.0
Nsanje,1553386635,-16.92,35.26,88,5.39,98,1013.09,72.88
Teya,1553386613,21.05,-89.07,75,13.87,45,1017.0,84.2
Leiyang,1553386636,26.42,112.85,100,4.61,100,1022.29,49.12
Harper,1553386530,30.3,-99.24,90,6.93,72,1017.0,71.01
Rafai,1553386636,4.95,23.92,8,10.09,76,1006.93,76.48
Port Alberni,1553386529,49.24,-124.81,75,5.82,66,1023.0,55.99
Dhidhdhoo,1553386637,6.88,73.1,0,5.61,100,1009.97,83.68
Basco,1553386569,40.33,-91.2,40,9.17,50,1021.0,55.0
Marsa Matruh,1553382000,31.35,27.25,40,8.05,87,1012.0,60.8
Kasangulu,1553385600,-4.59,15.17,75,2.48,94,1011.0,71.6
Luanda,1553385600,-8.83,13.24,40,6.93,83,1011.0,80.6
Bima,1553386211,-8.45,118.73,88,4.94,91,1009.41,80.08
Camara de Lobos,1553386517,32.63,-16.97,75,8.05,72,1017.0,60.8
Breves,1553386638,-1.68,-50.48,80,6.62,99,1013.05,76.3
Trincomalee,1553386638,8.58,81.23,36,2.93,95,1010.97,71.89
Tsaratanana,1553386638,-16.8,47.65,48,2.93,93,1009.97,68.02
Batticaloa,1553386114,7.71,81.69,0,2.59,100,1010.93,75.85
Porto Uniao,1553386639,-26.24,-51.08,0,2.04,94,1016.41,58.21
Colares,1553386029,38.8,-9.45,0,11.41,39,1019.0,64.4
Falkenberg,1553386634,49.86,12.22,20,2.24,93,1026.0,45.0
Arroio Grande,1553386639,-32.24,-53.09,0,13.89,95,1016.61,68.29
Mata,1553381400,22.63,-79.93,75,13.87,64,1020.0,73.4
Te Kauwhata,1553386558,-37.4,175.15,36,5.82,64,1023.0,77.0
Petropavlovsk-Kamchatskiy,1553383800,53.05,158.65,75,4.47,74,986.0,30.2
Hervey Bay,1553386509,-25.3,152.85,75,5.82,69,1016.0,89.01
Malinovoye Ozero,1553386640,51.68,79.77,8,3.38,63,1020.61,15.46
Canmore,1553386143,51.09,-115.35,20,10.29,70,1017.0,48.0
Hueyapan,1553386641,19.88,-97.44,0,2.15,61,1013.29,68.65
Keuruu,1553386358,62.26,24.71,0,9.17,69,1000.0,36.0
Freeport,1553382000,26.54,-78.7,20,6.93,60,1022.0,73.4
Medina del Campo,1553386439,41.31,-4.92,0,3.71,68,1024.0,48.99
San Policarpo,1553386642,12.18,125.51,36,12.44,87,1013.97,78.91
Evanston,1553386625,42.04,-87.69,1,4.7,42,1024.0,51.01
Santa Vitoria,1553386642,-7.82,-67.03,48,1.48,94,1010.49,75.4
Emerald,1553385254,-23.53,148.16,40,8.05,74,1016.0,82.0
Asyut,1553382000,27.18,31.19,8,18.34,16,1004.0,77.0
Polahongon,1553386643,10.53,124.97,24,9.31,90,1013.65,77.11
Lasa,1553385658,34.92,32.53,0,4.7,76,1006.0,57.2
Worland,1553386616,44.02,-107.96,1,17.22,26,1012.0,60.8
Hami,1553386590,42.84,93.51,0,8.41,42,1021.65,31.75
Saint Stephen,1553386606,45.7,-94.27,1,4.7,65,1020.0,46.4
Minsk,1553383800,53.9,27.56,0,8.95,55,1017.0,39.2
Broken Hill,1553382000,-31.97,141.45,90,9.17,82,1014.0,68.0
Xingtai,1553386644,37.07,114.49,0,3.38,52,1020.37,37.15
Nemuro,1553383800,43.32,145.57,75,9.17,58,1006.0,24.8
Touros,1553382000,-5.2,-35.46,40,6.93,83,1013.0,82.4
Sao Fidelis,1553382000,-21.65,-41.75,0,4.7,78,1016.0,77.0
Chowchilla,1553386404,37.12,-120.26,20,10.29,48,1021.0,66.2
Mareeba,1553386422,-16.99,145.42,75,6.93,79,1013.0,84.2
Ayagoz,1553386645,47.96,80.43,8,2.71,71,1022.21,14.65
Srivardhan,1553386645,18.03,73.02,0,2.82,84,1009.53,68.2
Toora-Khem,1553386645,52.47,96.11,0,2.48,61,1023.17,8.62
Sibanicu,1553381400,21.23,-77.53,75,17.22,73,1018.0,77.0
Fort Collins,1553386643,40.55,-105.07,90,8.05,57,1014.0,50.0
Riverton,1553386578,43.02,-108.38,1,6.93,26,1013.0,55.4
Whitefish,1553386614,48.41,-114.33,1,5.82,53,1016.0,51.01
Phangnga,1553383800,8.45,98.53,20,3.36,78,1011.0,80.6
Lukulu,1553386647,-14.38,23.24,0,8.19,55,1009.85,69.73
Kiunga,1553386084,-6.12,141.3,12,2.93,82,1011.61,80.98
Angoche,1553386647,-16.23,39.91,8,9.64,100,1010.37,81.97
Bonavista,1553386537,48.65,-53.11,92,1.01,87,985.0,36.0
Whitehorse,1553386503,60.72,-135.06,90,9.17,70,1014.0,46.0
Balkanabat,1553386573,39.51,54.36,48,4.61,82,1013.09,36.07
Portland,1553386316,45.52,-122.67,75,6.93,44,1022.0,60.8
La Sarre,1553386648,48.8,-79.2,0,10.76,71,1010.73,30.4
Yerbogachen,1553386648,61.28,108.01,44,6.4,60,1016.81,6.73
Lashio,1553386648,22.93,97.75,0,1.81,88,1010.41,60.64
Tiarei,1553385789,-17.53,-149.33,75,9.17,70,1010.0,87.8
Galich,1553386648,58.38,42.35,76,7.63,85,1016.41,22.48
Tura,1553386649,25.52,90.21,0,3.15,78,1009.85,56.68
Mweka,1553386649,-4.85,21.56,80,2.59,97,1009.21,70.63
Uberaba,1553382000,-19.75,-47.94,0,5.82,73,1017.0,75.2
Hanyang,1553386649,32.14,105.51,68,2.82,92,1023.41,38.23
Novobirilyussy,1553386649,56.95,90.69,88,2.59,87,1017.21,25.72
Adelaide,1553386563,-34.93,138.6,0,6.93,68,1009.0,77.0
Port Hedland,1553383800,-20.31,118.58,90,41.38,94,994.0,78.8
Hamilton,1553385627,32.3,-64.78,75,17.22,72,1020.0,64.4
Port Augusta,1553386110,-32.49,137.76,40,4.7,88,1010.0,72.0
Seto,1553386562,35.24,137.12,20,13.87,65,1018.0,51.01
Caetite,1553386650,-14.07,-42.48,92,8.3,89,1013.85,70.18
Ugoofaaru,1553386650,5.67,73.0,32,8.97,96,1009.73,85.66
Codrington,1553386125,-28.95,153.24,0,3.36,73,1015.0,82.99
Shingu,1553382000,33.72,135.99,20,13.87,61,1019.0,46.4
Zapolyarnyy,1553383200,69.43,30.82,0,28.86,81,978.0,32.0
Nkoteng,1553386651,4.5,12.12,92,4.16,99,1011.17,68.83
Sayyan,1553386651,15.17,44.32,0,1.14,85,1008.93,46.33
Krasnyy Yar,1553386651,50.7,44.73,32,6.4,86,1016.17,28.6
Bichena,1553386652,10.45,38.2,0,1.59,62,1006.81,58.21
Puerto Escondido,1553380860,15.86,-97.07,20,5.82,74,1015.0,82.4
Estreito,1553386519,-22.44,-42.8,75,6.93,78,1015.0,80.6
Mana,1553383800,43.52,20.24,0,2.24,78,1024.0,39.2
Nago,1553385960,45.88,10.89,0,3.36,57,1023.0,54.0
Yar-Sale,1553386653,66.83,70.83,8,3.94,76,1014.09,7.45
Nouadhibou,1553382000,20.93,-17.03,20,10.29,88,1014.0,64.4
Koumra,1553386653,8.92,17.55,80,4.05,34,1003.77,81.7
Chateaubelair,1553386502,13.28,-61.25,75,12.75,78,1016.0,80.6
Jasper,1553386602,33.83,-87.28,0,2.59,41,1023.0,69.8
Nabire,1553386653,-3.36,135.5,0,1.81,86,1011.09,76.57
Pimentel,1553386540,-3.7,-45.5,76,3.49,95,1013.21,74.77
Kupang,1553386654,-10.16,123.6,12,10.65,90,1009.09,84.04
Svetlaya,1553386591,46.54,138.33,0,10.76,100,1008.21,22.75
Lebedinyy,1553386654,58.52,125.52,80,3.71,85,1000.93,19.78
Aitape,1553386654,-3.15,142.36,0,3.49,91,1010.53,82.69
Toppenish,1553386615,46.38,-120.31,90,3.36,36,1018.0,62.6
Huntington,1553386344,38.42,-82.45,1,2.26,31,1026.0,55.4
Mushie,1553386571,-3.02,16.92,92,2.37,100,1011.17,70.9
Taltal,1553386655,-25.41,-70.49,0,2.37,83,1014.05,62.26
Obo,1553386655,5.39,26.49,0,2.71,82,1005.97,70.0
Komsomolskiy,1553386470,67.55,63.78,88,18.25,90,1009.05,19.87
Marzuq,1553386656,14.4,46.47,0,2.37,89,1009.93,49.3
Santa Isabel do Rio Negro,1553386656,-0.41,-65.02,48,0.36,92,1010.49,78.55
Barcelona,1553386656,41.38,2.18,0,3.36,93,1023.0,61.0
Gao,1553386578,16.28,-0.04,80,7.63,21,1010.41,78.82
Ballina,1553386384,54.11,-9.15,20,4.0,79,1034.0,45.0
Lokomotivnyy,1553386657,53.01,60.57,80,3.04,90,1022.37,31.21
Jishou,1553386657,28.26,109.7,100,6.51,100,1023.97,42.46
Zhuhai,1553382000,40.71,112.04,0,4.47,61,1017.0,15.8
Sampit,1553386657,-2.54,112.95,44,4.72,95,1010.37,76.03
Panama City,1553386637,30.16,-85.65,1,5.82,51,1023.0,66.2
Aksu,1553383800,52.04,76.93,90,6.71,100,1019.0,28.4
Shizunai,1553386658,42.33,142.37,80,8.97,94,1005.09,28.6
Waipawa,1553386337,-39.94,176.59,0,3.0,56,1023.0,75.0
Malaga,1553386588,-31.86,115.89,0,8.05,58,1019.0,62.01
East Wenatchee Bench,1553385707,47.43,-120.28,75,6.93,25,1018.0,62.6
Westerland,1553386631,52.89,4.93,90,4.7,87,1032.0,43.0
Tucumcari,1553386218,35.17,-103.73,1,12.75,18,1012.0,69.8
Bondowoso,1553386659,-7.91,113.82,20,3.15,93,1009.37,75.85
Concepcion,1553386659,9.56,-73.66,8,2.26,70,1008.97,85.03
Artyom,1553383800,43.36,132.19,12,6.71,67,1013.0,23.0
Itaituba,1553386400,-4.26,-55.99,76,3.38,84,1011.97,78.91
Champerico,1553381520,16.38,-93.6,40,14.99,38,1013.0,89.6
Nhulunbuy,1553383800,-12.18,136.78,75,8.05,79,1009.0,86.0
Challans,1553386625,46.85,-1.88,0,4.7,81,1027.0,48.2
Patiya,1553386660,22.3,91.98,0,3.04,100,1009.77,73.78
Seydi,1553386660,13.34,7.75,0,4.38,41,1006.97,74.5
Smithers,1553382000,54.78,-127.17,40,2.37,34,1021.0,50.0
Canyon,1553386622,34.98,-101.92,1,3.36,42,1013.0,68.0
Nuevo Progreso,1553386647,26.05,-97.95,90,13.87,69,1016.0,78.8
Edd,1553386505,13.93,41.69,32,2.59,86,1006.85,68.65
Salto,1553385412,-31.39,-57.96,0,2.71,66,1013.0,69.01
Balkhash,1553386661,46.84,74.98,0,3.27,81,1021.53,26.35
Pleasanton,1553386558,37.66,-121.87,40,18.34,29,1023.0,63.0
Fonte Boa,1553386662,-2.51,-66.09,48,1.48,89,1010.29,81.16
Ukiah,1553386539,39.15,-123.21,1,14.99,44,1022.0,59.0
Humboldt,1553386662,52.21,-105.12,0,20.04,97,1021.77,37.33
Tamiahua,1553386662,21.28,-97.45,0,16.8,86,1014.21,75.4
Batagay,1553386663,67.65,134.64,24,2.93,64,1010.41,-0.66
Lastoursville,1553386663,-0.81,12.73,88,2.71,98,1011.37,70.0
Tarakan,1553386397,3.3,117.63,76,0.81,100,1011.97,77.56
Nishihara,1553386501,35.74,139.53,20,4.7,39,1014.0,51.01
Atuntaqui,1553382000,0.33,-78.22,75,5.82,93,1026.0,55.4
Soteapan,1553381280,18.23,-94.87,40,13.87,74,1012.0,78.8
Dingle,1553386664,11.0,122.67,56,14.67,74,1013.09,77.56
Nizhnyaya Salda,1553386664,58.07,60.71,0,2.37,66,1022.49,14.38
Gorontalo,1553386493,0.54,123.06,8,2.48,83,1011.21,77.11
Puerto Madero,1553386503,-34.61,-58.36,0,9.17,64,1012.0,72.0
Tateyama,1553386214,36.66,137.31,75,3.36,86,1019.0,44.01
Belvedere Marittimo,1553386391,39.62,15.86,0,3.0,87,1021.0,48.99
Superior,1553386574,39.95,-105.17,75,10.29,57,1016.0,53.6
Asosa,1553386665,10.07,34.53,64,4.61,21,1004.53,78.55
Oussouye,1553385600,12.49,-16.54,0,6.93,83,1013.0,69.8
Nawa,1553386665,27.02,75.0,0,5.39,60,1013.17,57.67
Kindu,1553386665,-2.95,25.92,44,2.26,94,1008.65,73.78
Klisura,1553386565,42.69,24.45,75,6.93,57,1024.0,48.2
Manavalakurichi,1553383800,8.13,77.3,20,4.7,83,1009.0,82.4
Kemin,1553386666,42.79,75.7,92,2.15,96,1024.49,30.58
Huilong,1553386666,28.89,110.18,100,3.49,97,1024.17,41.56
Piedras Negras,1553385480,28.7,-100.52,1,12.75,60,1014.0,80.6
Misawa,1553386208,40.75,141.38,75,17.22,79,1009.0,30.2
Celestun,1553386404,20.87,-90.4,8,21.5,93,1016.29,78.01
Komarichi,1553386667,52.42,34.79,0,4.61,79,1021.05,21.85
Roswell,1553386598,33.39,-104.52,1,9.17,11,1014.0,75.2
Batemans Bay,1553386203,-35.71,150.18,92,3.83,84,1011.0,72.0
Sistranda,1553386470,63.73,8.83,75,34.45,80,1008.0,36.0
Nhamunda,1553386668,-2.19,-56.71,20,1.92,95,1011.61,75.94
Bath,1553386449,51.38,-2.36,92,4.7,75,1032.0,48.0
Apt,1553386550,43.88,5.4,0,2.24,54,1023.0,57.0
Jijiga,1553386668,9.35,42.8,0,3.15,71,1009.41,50.56
Villaviciosa,1553386612,43.48,-5.43,0,4.7,93,1026.0,54.0
Bereda,1553385844,43.27,-7.54,0,3.36,87,1024.0,50.0
Vallenar,1553386664,-28.58,-70.76,0,2.15,88,1014.85,62.62
Zabid,1553386669,14.2,44.5,0,0.92,81,1009.37,43.45
Brive-la-Gaillarde,1553386510,45.16,1.53,0,1.99,68,1025.0,52.0
Rabo de Peixe,1553386613,37.8,-25.58,75,20.8,76,1020.0,55.0
Daugavpils,1553386670,55.88,26.53,32,14.79,92,1016.05,39.85
Tambacounda,1553386670,13.77,-13.67,56,2.48,61,1012.41,77.38
Sao Filipe,1553386670,14.9,-24.5,0,13.22,98,1016.65,69.91
Khani,1553383800,41.96,42.96,90,9.17,100,1018.0,39.2
Novyy Oskol,1553386670,50.76,37.86,20,9.64,88,1018.09,28.33
Tias,1553385600,28.96,-13.65,20,9.17,77,1014.0,62.6
Soyo,1553386084,-6.13,12.37,80,2.93,97,1011.21,75.4
Leopold,1553386632,38.1,-86.58,1,3.36,34,1024.0,55.4
Rawson,1553386671,-43.3,-65.11,80,21.83,67,1015.65,57.67
Cuamba,1553386671,-14.8,36.54,68,4.05,97,1011.73,68.65
Japura,1553386433,-0.42,102.29,56,2.82,95,1010.81,73.06
Los Altos,1553386539,-28.05,-65.5,0,5.5,86,1015.0,57.99
Krasnyy Chikoy,1553386672,50.36,108.75,80,3.94,78,1016.41,26.71
Guasca,1553382000,4.87,-73.88,75,8.05,77,1027.0,60.8
Mahibadhoo,1553386420,3.78,72.97,0,11.21,100,1009.53,84.67
Anori,1553386672,-3.74,-61.66,44,2.04,90,1010.73,77.38
Jaguaribe,1553386098,-5.88,-38.62,88,1.81,100,1014.05,74.05
High Level,1553385600,58.52,-117.13,40,13.87,59,1027.0,37.4
Bambanglipuro,1553386672,-7.95,110.28,24,4.05,96,1009.49,75.22
Strelka,1553386673,58.08,93.03,88,2.15,86,1018.49,23.2
Vieux-Habitants,1553383800,16.06,-61.77,0,10.29,78,1017.0,77.0
Marand,1553383800,38.43,45.77,0,4.7,82,1012.0,39.2
Pilar,1553386092,-34.46,-58.91,0,3.36,77,1012.0,72.0
Bonthe,1553386236,7.53,-12.5,68,3.6,76,1012.29,81.34
Ankazoabo,1553386673,-22.29,44.51,0,9.19,78,1010.93,71.8
Xuddur,1553386673,4.12,43.89,0,10.31,61,1008.41,73.15
Anito,1553386674,12.45,125.29,0,15.9,96,1014.05,79.9
Arlit,1553386674,18.74,7.39,48,7.18,30,1010.21,71.53
Erenhot,1553386674,43.65,111.97,0,12.44,66,1017.17,27.25
Eydhafushi,1553386674,5.1,73.07,32,8.97,96,1009.73,85.66
Laguna,1553380800,27.52,-110.01,5,6.93,26,1014.0,82.4
Ponta Delgada,1553386671,37.73,-25.67,75,20.8,76,1020.0,55.0
Ewa Beach,1553386220,21.32,-158.01,90,5.82,57,1019.0,80.6
Crossville,1553386568,35.95,-85.03,1,4.7,20,1024.0,55.0
Puerto Colombia,1553384707,10.99,-74.96,40,12.75,83,1011.0,79.0
Ust-Nera,1553386676,64.57,143.24,0,1.25,72,1010.93,3.31
Benton Harbor,1553386574,42.12,-86.45,1,4.7,39,1024.0,46.4
Moose Factory,1553382000,51.26,-80.61,90,14.99,51,1006.0,39.2
Kilimatinde,1553386676,-5.75,34.82,24,7.63,64,1008.73,71.35
Haimen,1553386472,31.87,121.18,0,7.96,67,1023.0,48.99
Mandan,1553386603,46.83,-100.89,1,6.93,100,1016.0,48.0
Farafangana,1553386677,-22.82,47.83,92,10.98,100,1013.53,75.22
Siderno,1553386619,38.28,16.3,5,4.7,44,1020.0,57.2
Llanelli,1553386547,51.68,-4.16,92,8.05,81,1033.0,46.99
Omis,1553385600,43.44,16.69,0,2.24,47,1021.0,55.4
Dibrugarh,1553383800,27.48,94.9,24,3.36,87,1013.0,60.8
Qaqortoq,1553385000,60.72,-46.03,44,1.12,47,1008.0,14.0
Canavieiras,1553386478,-15.68,-38.95,88,5.61,97,1013.61,77.74
Leningradskiy,1553386456,69.38,178.42,80,20.27,90,1013.09,-3.99
Tiznit,1553386678,29.7,-9.73,92,4.72,99,1013.41,59.56
Almaznyy,1553383800,48.03,40.04,75,8.95,90,1012.0,33.8
Staraya Kulatka,1553386678,52.73,47.62,88,5.73,97,1017.73,32.47
Elat,1553386679,2.91,11.16,92,3.15,99,1011.17,70.54
Nuuk,1553385000,64.17,-51.74,20,17.22,55,1007.0,10.4
Ormond Beach,1553386469,29.29,-81.06,1,5.82,72,1024.0,69.01
Batagay-Alyta,1553386424,67.8,130.41,56,3.27,73,1011.21,-1.38
Phon Thong,1553382000,16.3,103.98,76,9.17,74,1011.0,78.8
Chakwal,1553386574,32.93,72.86,36,2.15,85,1016.09,50.02
Huautla,1553386679,21.03,-98.29,0,4.16,67,1012.97,76.75
Awbari,1553386584,26.59,12.77,56,3.38,47,1019.61,50.92
Saint-Leu,1553386577,-21.15,55.28,0,4.7,74,1009.0,80.6
Haines Junction,1553386680,60.75,-137.51,68,5.61,57,1015.93,40.93
Novonikolayevskiy,1553385770,50.97,42.37,56,1.99,87,1001.0,33.01
Mayo,1553382000,63.59,-135.9,75,10.29,33,1009.0,59.0
Ambilobe,1553386397,-13.19,49.05,64,2.71,98,1009.05,72.52
Xining,1553386548,36.62,101.77,8,2.48,68,1026.49,16.0
Tavda,1553386681,58.04,65.27,0,2.71,65,1022.29,12.94
Balabac,1553386585,7.99,117.06,0,12.55,97,1011.49,82.42
Porto,1553386563,41.15,-8.61,0,5.82,62,1021.0,60.01
Newcastle,1553386474,-27.76,29.92,8,2.37,93,1018.53,51.73
Biak,1553386453,-0.91,122.88,68,2.37,89,1010.85,81.52
Horsham,1553386682,-36.71,142.2,48,10.42,61,1010.41,71.89
Staffanstorp,1553386625,55.64,13.21,0,11.41,75,1027.0,41.0
Sao Miguel do Araguaia,1553386457,-13.28,-50.16,32,4.38,92,1011.41,77.11
Nouakchott,1553383800,18.08,-15.98,0,9.17,88,1013.0,64.4
Altay,1553386471,47.83,88.13,0,3.38,46,1025.97,2.5
Marawi,1553385664,8.0,124.29,12,7.0,77,1013.0,78.01
Banda Aceh,1553386444,5.56,95.32,24,1.14,97,1010.49,73.96
Kavarna,1553383800,43.43,28.33,0,2.24,95,1023.0,32.0
Gualaquiza,1553386683,-3.4,-78.58,92,0.92,97,1011.29,63.79
Kesinga,1553386683,20.19,83.22,0,2.71,77,1011.17,66.4
Byron Bay,1553386427,-28.65,153.62,0,3.36,58,1015.0,90.0
Toropets,1553386683,56.5,31.64,92,16.35,94,1012.85,33.1
Vanderhoof,1553386683,54.02,-124.02,0,3.27,51,1022.93,44.62
Calabozo,1553386429,8.92,-67.43,0,9.42,35,1009.77,89.17
Shitanjing,1553386684,39.23,106.34,76,2.15,53,1023.49,27.7
Elko,1553386673,40.83,-115.76,90,6.93,70,1015.0,46.4
Douglas,1553386674,31.34,-109.55,1,8.05,14,1017.0,72.0
Inta,1553386685,66.04,60.13,80,9.31,78,1009.93,27.7
Nanakuli,1553386578,21.39,-158.15,90,5.82,57,1019.0,80.6
Hanmer Springs,1553386685,-42.52,172.83,0,3.27,48,1019.73,72.16
Walvis Bay,1553385726,-22.95,14.51,0,8.05,77,1017.0,64.0
Ban Bung,1553382000,18.31,100.7,20,1.12,100,1010.0,64.4
Araouane,1553386407,18.9,-3.53,36,8.75,16,1011.85,72.61
Margate,1553386045,-43.03,147.26,20,9.17,52,1007.0,69.01
Quilali,1553386409,13.57,-86.03,20,13.87,50,1013.0,77.0
Kerman,1553382000,30.29,57.06,20,4.7,42,1018.0,46.4
Aksay,1553383800,47.27,39.86,75,8.95,86,1012.0,33.8
Samarai,1553386486,-10.62,150.67,92,7.74,100,1011.21,78.55
Pierre,1553386479,44.37,-100.35,90,5.82,75,1016.0,44.6
Zinder,1553386686,13.81,8.99,0,14.0,21,1007.09,80.08
Ulaangom,1553386687,49.98,92.07,0,2.37,59,1026.09,-3.0
Kilindoni,1553386429,-7.91,39.67,0,3.94,100,1009.65,82.15
Benalla,1553386549,-36.55,145.99,64,8.05,68,1013.0,73.99
Aberdeen,1553386561,45.47,-98.49,1,5.82,80,1018.0,43.0
Bermejo,1553386687,-22.73,-64.34,100,2.15,99,1012.61,67.21
Tezu,1553386687,27.93,96.16,0,1.59,95,1014.73,48.85
Pangoa,1553386688,-12.12,-73.0,56,2.37,98,1010.81,66.13
Berlevag,1553386611,70.86,29.09,8,9.42,100,977.93,26.35
Pinawa,1553386688,50.15,-95.88,0,6.51,88,1016.61,37.6
Nayoro,1553386688,44.36,142.46,44,5.39,68,1004.65,27.07
Dubbo,1553383800,-32.25,148.6,56,8.05,51,1014.0,82.4
Hay River,1553385600,60.82,-115.79,75,16.11,73,1033.0,19.4
Verkh-Usugli,1553386689,52.7,115.17,0,7.4,55,1008.21,17.89
Kaili,1553386689,-3.46,120.21,32,2.48,76,1010.21,77.56
Jambi,1553386689,-1.6,103.62,92,2.82,96,1010.81,73.33
Marsh Harbour,1553386473,26.54,-77.06,0,9.42,100,1022.53,73.15
Rocha,1553386689,-34.48,-54.34,68,8.52,56,1014.85,68.56
Srandakan,1553386690,-7.94,110.25,24,4.05,96,1009.49,75.22
Valcau de Jos,1553385600,47.12,22.73,0,6.93,69,1024.0,37.4
Oktyabrskiy,1553385468,55.61,37.97,40,2.24,100,1017.0,32.0
Peniche,1553386637,39.36,-9.38,0,11.41,39,1019.0,64.4
Denpasar,1553383800,-8.65,115.22,20,1.12,94,1008.0,78.8
Kurilsk,1553386691,45.23,147.88,8,13.89,99,1007.05,23.74
North Platte,1553386539,41.12,-100.77,90,11.41,70,1012.0,46.4
Zyryanka,1553386691,65.73,150.89,32,3.15,77,1008.73,7.0
Skjervoy,1553386691,70.03,20.97,92,7.74,100,972.65,35.44
Barra do Garcas,1553386691,-15.89,-52.26,0,3.71,75,1010.41,77.2
Visby,1553386682,57.64,18.3,0,16.11,82,1017.0,39.99
Bayanday,1553386692,53.07,105.52,8,6.17,86,1017.49,20.5
Lagos,1553382000,6.46,3.39,20,3.36,88,1011.0,82.4
Stromness,1553386681,42.87,-79.55,5,10.29,90,1022.0,37.0
Muncar,1553386512,-8.43,114.34,0,2.59,99,1009.21,79.72
Punta Cardon,1553386692,11.61,-70.22,0,24.74,62,1011.53,82.69
Anamur,1553385000,36.08,32.84,0,17.22,36,1006.0,61.0
Camocim,1553386641,-2.9,-40.84,88,4.83,91,1013.65,77.11
Ouidah,1553382000,6.37,2.09,20,13.87,83,1010.0,84.2
Mitsamiouli,1553386693,-11.38,43.28,8,2.82,100,1009.17,80.89
Dwarka,1553383800,28.58,77.04,0,4.7,67,1012.0,60.8
Tramore,1553386660,52.16,-7.15,56,1.7,82,1034.0,44.01
Mosetse,1553386694,-20.64,26.64,0,14.12,59,1014.53,71.35
Barstow,1553386336,31.46,-103.39,1,11.41,10,1014.0,78.01
Novikovo,1553386629,45.05,34.56,56,8.97,100,1019.85,35.35
Maragogi,1553386694,-9.01,-35.22,44,5.61,93,1014.21,78.28
Hovd,1553386517,63.83,10.7,75,47.2,64,1008.0,37.4
Caravelas,1553386695,-17.73,-39.27,76,16.69,100,1014.09,82.06
General Pico,1553386695,-35.66,-63.75,0,9.98,41,1011.97,74.68
Whangamata,1553386638,-37.21,175.87,80,3.38,92,1026.0,68.0
Chaman,1553386695,30.92,66.46,80,3.27,84,1017.29,46.42
Alamogordo,1553386680,32.9,-105.96,1,5.39,12,1017.0,68.0
Vredendal,1553386696,-31.68,18.49,44,3.27,95,1011.77,54.88
Hailar,1553386696,49.2,119.7,48,11.65,52,1005.85,26.35
Waingapu,1553386696,-9.65,120.26,56,6.73,87,1009.29,79.63
Kalmunai,1553386696,7.42,81.82,0,2.59,98,1010.97,70.09
Lahad Datu,1553386696,5.02,118.33,0,3.38,98,1011.85,76.93
Heishan,1553386476,41.69,122.12,0,16.69,48,1013.65,39.04
Viransehir,1553386697,37.24,39.76,92,8.19,95,1008.41,48.13
Gamba,1553386697,28.28,88.52,0,2.26,26,1017.97,-16.5
Yaan,1553386208,7.38,8.57,92,12.88,83,1009.41,77.65
Ossora,1553386653,59.24,163.07,12,9.42,90,995.05,18.52
Mnogovershinnyy,1553386451,53.94,139.92,0,3.27,55,1000.65,11.5
Mombetsu,1553386265,44.35,143.35,80,1.99,73,1005.0,27.0
Liverpool,1553386397,53.41,-2.98,0,2.24,81,1033.0,44.6
Valente,1553386698,-11.41,-39.46,80,3.27,97,1014.17,70.81
Cairns,1553386422,-16.92,145.77,75,6.93,79,1013.0,84.2
Huanan,1553386698,46.24,130.56,64,8.08,65,1006.97,27.16
Petlawad,1553386698,22.96,74.82,0,4.72,32,1012.05,64.15
Ebolowa,1553386699,2.92,11.15,92,3.15,99,1011.17,70.54
Tornio,1553386516,61.12,27.27,75,11.41,83,1003.0,35.6
Ryotsu,1553383920,38.08,138.43,40,19.46,100,1017.0,35.6
Rio Pardo,1553386539,-29.98,-52.37,0,10.2,85,1016.41,65.23
Diffa,1553386699,13.32,12.61,0,11.21,26,1005.97,76.12
Sidi Ali,1553386700,36.1,0.42,0,4.16,87,1022.05,46.96
Gawler,1553386682,-34.6,138.75,0,6.93,68,1009.0,77.0
Jvari,1553386700,42.72,42.05,92,2.04,100,1018.53,32.47
Didi Lilo,1553383800,41.74,44.97,40,24.16,75,1014.0,41.0
Genhe,1553386700,50.78,121.52,0,9.31,66,1003.29,18.43
Kalevala,1553386701,64.12,29.58,0,9.42,78,995.29,29.86
Half Moon Bay,1553386591,37.46,-122.43,1,13.87,67,1024.0,62.6
Flin Flon,1553382000,54.77,-101.88,20,8.05,49,1028.0,26.6
Ochamchira,1553386701,42.71,41.47,92,5.84,100,1018.49,41.38
Tulun,1553386701,54.56,100.58,92,2.71,87,1019.09,25.81
Havelock,1553386553,34.88,-76.9,1,9.17,25,1023.0,60.8
Gigmoto,1553386435,13.78,124.39,0,11.54,96,1014.49,79.54
Elk City,1553386416,35.41,-99.4,1,5.82,37,1013.0,71.6
Khash,1553386702,28.22,61.21,68,2.82,99,1016.49,46.69
Sioux Lookout,1553385600,50.1,-91.92,1,10.29,70,1013.0,50.0
